City,Cloudiness,Country,Date,Humidity,Lat,Lng,Max Temp,Wind Speed
Puerto Ayora,2,EC,1604790599,77,-0.74,-90.35,71.01,7.0
Vostok,97,RU,1604790599,98,46.49,135.88,23.72,0.67
Albany,90,US,1604790599,54,42.6,-73.97,59.0,3.76
Saint-François,0,FR,1604790599,67,46.42,3.91,60.8,3.36
Baghlan,36,AF,1604790600,44,36.13,68.71,52.16,2.39
Oistins,40,BB,1604790568,83,13.07,-59.53,80.6,17.22
Hong Kong,41,HK,1604790466,57,22.29,114.16,77.0,1.99
Samarai,26,PG,1604790600,80,-10.62,150.67,81.99,8.48
Geraldton,90,AU,1604790600,68,-28.77,114.6,69.8,6.93
Ushuaia,40,AR,1604790562,54,-54.8,-68.3,57.2,9.17
Jamestown,1,US,1604790600,42,42.1,-79.24,62.6,4.7
Busselton,38,AU,1604790600,68,-33.65,115.33,61.0,3.15
Cherskiy,100,RU,1604790601,94,68.75,161.3,5.0,6.42
Palmer,40,US,1604790306,40,42.16,-72.33,68.0,9.17
Thompson,90,CA,1604790601,85,55.74,-97.86,19.4,2.24
Punta Arenas,40,CL,1604790365,58,-53.15,-70.92,57.2,32.21
Deputatsky,98,RU,1604790601,93,69.3,139.9,-4.97,3.29
Leningradskiy,100,RU,1604790601,95,69.38,178.42,19.11,10.09
Tomatlán,59,MX,1604790602,70,19.93,-105.25,82.42,7.11
Krivosheino,90,RU,1604790602,82,57.34,83.93,36.46,12.06
Bredasdorp,2,ZA,1604790602,59,-34.53,20.04,62.6,12.75
Cape Town,75,ZA,1604790466,87,-33.93,18.42,60.01,16.11
Tuktoyaktuk,75,CA,1604790603,86,69.45,-133.04,26.6,24.16
Miles City,1,US,1604790603,65,46.41,-105.84,46.4,10.29
Nuuk,100,GL,1604790603,92,64.18,-51.72,21.2,13.87
Burlington,1,US,1604790348,52,39.88,-74.64,66.2,3.89
Khatanga,4,RU,1604790603,86,71.97,102.5,-4.5,13.04
Rikitea,40,PF,1604790603,70,-23.12,-134.97,71.64,15.77
Hobart,20,AU,1604790333,54,-42.88,147.33,60.01,5.82
Srednekolymsk,99,RU,1604790603,92,67.45,153.68,-4.43,9.24
Kaitangata,50,NZ,1604790604,46,-46.28,169.85,53.01,11.99
Berlevåg,88,NO,1604790604,74,70.86,29.09,39.22,30.38
Yellowknife,75,CA,1604790474,85,62.46,-114.35,10.4,4.7
Esperance,90,AU,1604790604,93,-33.87,121.9,59.0,9.17
Bay Roberts,30,CA,1604790604,84,47.6,-53.26,42.01,8.01
Antigonish,99,CA,1604790604,79,45.62,-62.0,44.01,9.75
Ancud,0,CL,1604790604,51,-41.87,-73.82,62.6,8.05
Vaini,20,TO,1604790604,69,-21.2,-175.2,80.6,6.93
Mar del Plata,0,AR,1604790551,88,-38.0,-57.56,64.4,9.17
Ballinrobe,100,IE,1604790605,3,53.63,-9.23,53.01,10.11
Qaanaaq,0,GL,1604790605,70,77.48,-69.36,-12.33,8.9
Butaritari,92,KI,1604790605,72,3.07,172.79,81.34,11.63
Ghātanji,0,IN,1604790369,51,20.13,78.32,61.21,4.68
Shingū,75,JP,1604790605,72,33.73,135.98,64.4,5.82
Marmora,100,IT,1604790590,93,44.46,7.09,51.01,3.36
Bambous Virieux,40,MU,1604790605,78,-20.34,57.76,73.4,5.82
Avera,1,US,1604790605,64,33.19,-82.53,75.2,5.82
Koumac,1,NC,1604790605,66,-20.57,164.28,79.34,14.47
East London,0,ZA,1604790606,75,-33.02,27.91,69.93,12.62
George Town,20,MY,1604790606,94,5.41,100.34,78.8,3.36
Caravelas,1,BR,1604790314,92,-17.71,-39.25,74.98,5.19
Barrow,90,US,1604790606,86,71.29,-156.79,30.2,24.16
Porto Torres,0,IT,1604790606,93,40.84,8.4,60.01,4.7
Arraial do Cabo,37,BR,1604790552,75,-22.97,-42.03,72.64,6.15
Chapais,90,CA,1604790606,98,49.78,-74.85,32.0,5.82
Avarua,78,CK,1604790606,78,-21.21,-159.78,77.0,4.7
Bluff,20,NZ,1604790607,49,-46.6,168.33,53.01,7.0
Port-Gentil,90,GA,1604790607,100,-0.72,8.78,77.0,5.82
Byron Bay,90,AU,1604790607,68,-28.65,153.62,68.0,16.11
Yangi Marg`ilon,70,UZ,1604790607,60,40.43,71.72,46.4,1.79
Cedar City,90,US,1604790551,74,37.68,-113.06,37.4,23.04
Port Alfred,8,ZA,1604790607,87,-33.59,26.89,68.23,11.95
Los Llanos de Aridane,0,ES,1604790607,68,28.66,-17.92,66.2,8.05
Arlit,2,NE,1604790607,26,18.74,7.39,73.15,8.14
Bentiu,39,SS,1604790608,36,9.23,29.83,76.17,2.75
Tasiilaq,63,GL,1604790608,74,65.61,-37.64,28.4,11.41
Kapaa,40,US,1604790608,83,22.08,-159.32,82.4,12.75
Aklavik,40,CA,1604790608,58,68.22,-135.01,30.2,4.7
New Norfolk,20,AU,1604790608,54,-42.78,147.06,60.01,5.82
Manali,40,IN,1604790608,94,13.17,80.27,77.0,2.24
Hilo,90,US,1604790466,88,19.73,-155.09,75.2,5.86
Hasaki,75,JP,1604790420,93,35.73,140.83,59.0,1.12
Upernavik,0,GL,1604790609,78,72.79,-56.15,0.0,7.49
Storforshei,86,NO,1604790609,93,66.4,14.52,36.0,1.99
Kempsey,69,AU,1604790609,51,-31.08,152.83,71.01,1.99
Atar,16,MR,1604790609,18,20.52,-13.05,85.3,10.27
Garoowe,39,SO,1604790609,72,8.41,48.48,73.09,11.01
Fengzhen,0,CN,1604790609,78,40.44,113.15,26.29,2.77
Mataura,39,NZ,1604790609,49,-46.19,168.86,53.01,7.0
Hambantota,1,LK,1604790609,80,6.12,81.12,78.85,9.19
Provideniya,12,RU,1604790610,93,64.38,-173.3,28.8,2.44
Lebu,0,CL,1604790610,73,-37.62,-73.65,54.43,22.68
Itarema,92,BR,1604790610,76,-2.92,-39.92,79.86,15.14
Bongaree,60,AU,1604790610,74,-27.08,153.16,69.01,1.99
Anadyr,40,RU,1604790610,92,64.75,177.48,21.2,6.71
Fare,91,PF,1604790610,74,-16.7,-151.02,80.04,10.6
Esim,91,GH,1604790610,86,4.87,-2.24,78.67,7.94
Aitape,99,PG,1604790610,78,-3.14,142.35,81.14,3.47
Dunedin,86,NZ,1604790344,56,-45.87,170.5,52.0,17.0
Vanimo,100,PG,1604790611,90,-2.67,141.3,75.56,6.04
Saskylakh,0,RU,1604790611,89,71.92,114.08,-8.59,7.72
Castro,0,BR,1604790611,55,-24.79,-50.01,64.08,4.83
Atuona,52,PF,1604790611,74,-9.8,-139.03,77.81,12.8
Labuhan,0,ID,1604790611,80,-6.88,112.21,78.85,9.1
Torbay,58,CA,1604790611,80,47.67,-52.73,41.0,1.99
Coahuayana Viejo,40,MX,1604790611,54,18.73,-103.68,84.2,11.41
Mbandaka,95,CD,1604790611,88,0.05,18.26,73.4,0.22
Santana,75,BR,1604790544,94,-0.06,-51.18,78.8,10.29
Noumea,90,NC,1604790612,61,-22.28,166.46,78.8,10.29
Bathsheba,40,BB,1604790612,83,13.22,-59.52,80.6,17.22
Saint-Philippe,0,RE,1604790612,77,-21.36,55.77,71.6,5.82
Corinth,75,GR,1604790612,55,37.94,22.96,62.6,6.93
Buchanan,20,LR,1604790612,94,5.88,-10.05,77.0,7.7
Tefé,40,BR,1604790612,83,-3.35,-64.71,78.8,3.36
Wajima,14,JP,1604790612,58,37.4,136.9,61.65,16.75
Sambava,100,MG,1604790612,85,-14.27,50.17,75.02,9.82
Hermanus,11,ZA,1604790613,86,-34.42,19.23,59.0,5.01
College,75,US,1604790613,73,64.86,-147.8,26.6,2.73
Cockburn Town,90,TC,1604790613,88,21.46,-71.14,77.0,9.17
Lagoa,1,PT,1604790613,75,39.05,-27.98,61.23,17.69
Tuatapere,46,NZ,1604790613,49,-46.13,167.68,53.01,7.0
Mossamedes,11,AO,1604790613,67,-15.2,12.15,69.91,10.18
Pangai,13,TO,1604790613,80,-19.8,-174.35,74.98,15.55
Puerto Carreño,98,CO,1604790609,79,6.19,-67.49,81.57,7.07
Aykhal,0,RU,1604790613,84,66.0,111.5,-0.4,4.47
Yelizovo,13,RU,1604790613,79,53.19,158.38,23.0,6.71
Mandan,1,US,1604790614,100,46.83,-100.89,44.6,5.82
Talara,23,PE,1604790614,84,-4.58,-81.27,65.21,15.21
Sitka,40,US,1604790614,69,57.05,-135.33,39.2,6.93
Kalmunai,68,LK,1604790614,82,7.42,81.82,78.49,5.03
Kumul,75,CN,1604790614,63,42.8,93.45,38.17,6.35
Souillac,40,MU,1604790614,78,-20.52,57.52,73.4,5.82
Isangel,75,VU,1604790614,83,-19.55,169.27,82.4,5.82
Hirado,0,JP,1604790524,87,33.36,129.55,59.0,4.7
Broome,1,US,1604790614,45,42.25,-75.83,62.6,3.36
Bella Union,11,UY,1604790614,72,-30.28,-57.6,70.14,8.59
Soyo,99,AO,1604790615,86,-6.13,12.37,77.92,8.23
Nanortalik,100,GL,1604790615,90,60.14,-45.24,32.18,7.67
Birin,0,NP,1604790615,54,26.89,88.07,51.26,5.41
Poum,10,NC,1604790615,76,-20.23,164.02,77.31,15.08
Camacha,20,PT,1604790615,82,33.08,-16.33,66.2,10.29
Harper,71,LR,1604790615,87,4.38,-7.72,78.58,5.86
Cabo San Lucas,40,MX,1604790615,65,22.89,-109.91,82.99,4.7
Nemuro,88,JP,1604790615,71,43.32,145.57,49.93,7.36
Zhigansk,84,RU,1604790615,88,66.77,123.37,-15.5,4.45
Maputo,0,MZ,1604790395,88,-25.97,32.59,78.01,4.7
Bengkulu,75,ID,1604790615,84,-3.8,102.27,75.78,4.0
Aksu,0,CN,1604790616,70,41.12,80.26,35.46,1.59
Port Elizabeth,0,ZA,1604790616,93,-33.92,25.57,62.6,8.05
Namatanai,55,PG,1604790616,65,-3.67,152.43,85.03,4.85
Isabela,75,PH,1604790616,100,6.71,121.97,73.4,1.05
Beroroha,15,MG,1604790616,43,-21.67,45.17,82.94,4.16
Ambunti,99,PG,1604790616,75,-4.24,142.84,81.81,0.74
Carnarvon,90,AU,1604790616,77,-24.87,113.63,69.8,14.99
Alta Floresta,77,BR,1604790601,65,-9.88,-56.09,79.7,3.83
Vila Franca do Campo,20,PT,1604790616,72,37.72,-25.43,59.0,6.93
Idlib,20,SY,1604790616,100,35.93,36.63,55.4,4.7
San Quintín,2,MX,1604790616,55,30.48,-115.95,65.03,20.49
Shubarkuduk,89,KZ,1604790616,78,49.14,56.49,37.85,18.16
Pevek,100,RU,1604790617,96,69.7,170.31,16.14,2.3
Segovia,10,ES,1604790617,97,41.17,-4.0,46.0,4.85
Chui,8,UY,1604790617,93,-33.7,-53.46,60.28,6.69
Jūybār,94,IR,1604790617,90,36.64,52.91,60.89,5.57
Nikolskoye,90,RU,1604790617,81,59.7,30.79,48.2,13.42
Acapulco de Juárez,5,MX,1604790501,70,16.86,-99.89,86.0,8.05
Bethel,1,US,1604790617,51,41.37,-73.41,62.6,4.27
Vestmanna,97,FO,1604790617,81,62.16,-7.17,42.8,5.82
Faanui,76,PF,1604790617,77,-16.48,-151.75,79.2,10.54
Severo-Kuril'sk,13,RU,1604790617,78,50.68,156.12,36.0,3.27
Lavrentiya,54,RU,1604790617,95,65.58,-171.0,29.59,7.85
Bowen,75,AU,1604790618,65,-20.02,148.23,82.4,9.17
Tiksi,22,RU,1604790618,92,71.69,128.87,-7.37,2.26
Qaqortoq,100,GL,1604790618,74,60.72,-46.03,28.4,9.22
Shintomi,75,JP,1604790618,72,32.08,131.47,64.4,11.41
Dikson,89,RU,1604790618,89,73.51,80.55,-2.88,12.95
São Francisco do Sul,0,BR,1604790618,73,-26.24,-48.64,71.6,3.36
Katsuura,75,JP,1604790618,72,35.13,140.3,63.0,5.82
Mehamn,89,NO,1604790618,74,71.04,27.85,38.95,28.86
Salinópolis,43,BR,1604790618,78,-0.61,-47.36,81.9,14.52
Creemore,94,CA,1604790619,48,44.33,-80.11,66.2,3.36
Vardø,65,NO,1604790619,73,70.37,31.11,39.69,24.92
Praia da Vitória,75,PT,1604790619,72,38.73,-27.07,60.8,15.28
Yar-Sale,92,RU,1604790619,99,66.83,70.83,24.96,2.3
Rocha,22,UY,1604790619,93,-34.48,-54.33,58.21,5.19
Maniitsoq,100,GL,1604790619,86,65.42,-52.9,21.63,14.23
Palmas,40,BR,1604790619,78,-10.21,-48.36,77.0,17.22
Cabinda,75,AO,1604790619,85,-5.55,12.2,77.58,6.93
Koungou,20,YT,1604790619,83,-12.73,45.2,77.0,2.24
Fes,0,MA,1604790583,82,34.04,-5.0,57.2,5.82
Mataquescuintla,40,GT,1604790620,64,14.53,-90.18,73.4,13.87
La Palma,75,US,1604790523,66,33.85,-118.05,59.0,10.29
Bousso,97,TD,1604790620,26,10.48,16.71,78.73,7.02
Touros,40,BR,1604790620,83,-5.2,-35.46,80.6,10.29
Tsiroanomandidy,99,MG,1604790620,56,-18.77,46.03,75.58,3.94
Say,0,NE,1604790620,21,13.1,2.37,80.6,4.7
Kapit,89,MY,1604790620,93,2.02,112.93,74.53,0.76
Betioky,0,MG,1604790620,47,-23.72,44.38,74.57,3.15
Vigrestad,80,NO,1604790620,97,58.57,5.7,43.0,6.87
Verkhoyansk,46,RU,1604790620,83,67.54,133.38,-27.18,1.07
São João da Barra,60,BR,1604790525,84,-21.64,-41.05,73.85,7.18
Briançon,99,FR,1604790621,71,44.9,6.65,51.01,2.93
Iqaluit,75,CA,1604790471,72,63.75,-68.51,10.4,4.7
Laguna,1,US,1604790621,36,38.42,-121.42,63.0,2.35
Soloneshnoye,0,RU,1604790621,70,51.65,84.32,40.14,6.38
Andreapol',100,RU,1604790621,88,56.65,32.27,46.87,12.66
Pallisa,100,UG,1604790621,94,1.15,33.71,66.29,2.89
Dzaoudzi,20,YT,1604790621,83,-12.79,45.27,77.0,2.24
Saint George,1,US,1604790621,20,37.1,-113.58,59.0,17.22
Marsaxlokk,20,MT,1604790621,77,35.84,14.54,64.99,6.93
Kavieng,61,PG,1604790621,66,-2.57,150.8,85.03,7.38
Ponta Delgada,20,PT,1604790621,72,37.73,-25.67,59.0,6.93
Port Blair,0,IN,1604790622,80,11.67,92.75,81.0,8.14
Sørland,100,NO,1604790622,69,67.67,12.69,40.68,15.5
Malé,60,MV,1604790622,70,4.17,73.51,83.32,4.03
Ponta do Sol,20,PT,1604790622,72,32.67,-17.1,64.4,4.7
Talnakh,75,RU,1604790622,92,69.49,88.4,17.6,22.37
Clyde River,5,CA,1604790622,83,70.47,-68.59,-7.6,3.36
Bayir,0,TR,1604790622,41,37.27,28.22,60.8,5.82
Hithadhoo,29,MV,1604790622,72,-0.6,73.08,83.53,7.99
San Patricio,20,US,1604790622,65,28.02,-97.52,78.8,16.11
Burgersdorp,0,ZA,1604790622,38,-31.0,26.33,63.1,8.7
Husavik,75,IS,1604790622,52,66.04,-17.34,44.6,11.41
Airai,69,TL,1604790623,44,-8.93,125.41,71.83,3.47
Broken Hill,0,AU,1604790623,36,-31.95,141.43,62.6,13.87
Kajaani,0,FI,1604790623,69,64.23,27.73,37.4,16.11
Belmonte,75,BR,1604790623,88,-15.86,-38.88,77.0,9.17
Dumas,1,US,1604790535,37,35.87,-101.97,71.01,23.04
Saint Paul Harbor,90,US,1604790339,81,57.79,-152.41,42.8,5.82
Lüderitz,0,NA,1604790623,86,-26.65,15.16,61.79,5.55
Narsaq,100,GL,1604790623,74,60.92,-46.05,28.4,7.23
Kamenka,1,RU,1604790623,92,51.32,42.77,37.0,9.37
Codrington,18,AU,1604790623,72,-38.27,141.97,55.13,8.59
Port Hardy,20,CA,1604790623,52,50.7,-127.42,46.4,21.92
‘Ewa Beach,90,US,1604790337,66,21.32,-158.01,84.2,5.82
Pueblo,1,US,1604790623,19,38.25,-104.61,75.2,25.28
Farmington,40,US,1604790495,39,36.73,-108.22,64.4,20.8
Brewer,75,US,1604790624,55,44.8,-68.76,60.8,3.36
Monteagudo,88,BO,1604790624,36,-19.82,-63.98,78.94,3.44
Puerto Madryn,98,AR,1604790624,54,-42.77,-65.04,60.58,20.0
Haines Junction,91,CA,1604790624,70,60.75,-137.51,-2.2,1.12
Sawtell,40,AU,1604790624,64,-30.38,153.1,68.0,16.11
Mugumu,65,TZ,1604790624,66,-1.85,34.7,65.26,3.18
Dingle,80,PH,1604790624,87,11.0,122.67,75.58,0.31
Karratha,0,AU,1604790625,53,-20.74,116.85,76.06,9.19
Tornio,0,FI,1604790625,64,65.85,24.15,35.6,12.75
Alyangula,75,AU,1604790625,94,-13.85,136.42,80.6,7.63
Ostrovnoy,100,RU,1604790625,89,68.05,39.51,34.5,21.16
Lata,20,PT,1604790625,93,40.16,-8.33,61.0,6.93
Cusco,15,PE,1604790462,27,-13.52,-71.98,64.4,9.17
Rio Grande,35,BR,1604790465,90,-32.03,-52.1,63.41,10.76
Itapirapuã,100,BR,1604790457,60,-15.82,-50.61,80.38,3.98
Fortuna,75,US,1604790625,66,40.6,-124.16,54.0,19.46
Chokurdakh,100,RU,1604790626,95,70.63,147.92,1.69,5.53
Kaunas,98,LT,1604790626,87,54.9,23.9,46.4,13.87
Makhachkala,75,RU,1604790626,76,42.98,47.5,48.2,24.61
Najrān,0,SA,1604790626,29,17.49,44.13,66.2,1.54
Glendive,1,US,1604790626,80,47.11,-104.71,39.2,13.87
Nishihara,1,JP,1604790626,100,26.18,127.76,77.0,4.7
Mount Gambier,1,AU,1604790626,66,-37.83,140.77,53.6,12.75
Bondo,87,CD,1604790627,95,3.81,23.69,68.41,0.89
Dalvik,75,IS,1604790627,52,65.97,-18.53,44.6,11.41
Alekseyevsk,100,RU,1604790627,95,57.84,108.35,16.79,6.96
Camocim,63,BR,1604790627,70,-2.9,-40.84,81.27,17.31
Beringovskiy,91,RU,1604790627,93,63.05,179.32,30.11,9.84
Meulaboh,100,ID,1604790628,84,4.14,96.13,75.92,3.06
Morondava,51,MG,1604790628,81,-20.28,44.28,79.74,8.01
Daokou,0,CN,1604790628,46,35.56,114.51,45.41,12.26
Pakxan,5,LA,1604790628,84,18.38,103.66,67.06,3.96
Pļaviņas,100,LV,1604790628,89,56.62,25.73,48.58,8.95
Hofn,100,IS,1604790628,84,64.25,-15.21,43.63,21.99
Whitehorse,75,CA,1604790582,84,60.72,-135.05,5.0,9.17
San Policarpo,95,PH,1604790628,82,12.18,125.51,77.63,1.83
Monte Patria,19,CL,1604790629,48,-30.69,-70.95,69.57,5.61
Naze,75,JP,1604790629,88,28.37,129.48,73.4,12.75
Mawlaik,0,MM,1604790629,86,23.63,94.42,66.49,1.34
Luocheng,95,CN,1604790629,75,29.38,104.03,60.75,1.05
Okhotsk,93,RU,1604790629,89,59.38,143.3,10.08,14.99
Kargasok,100,RU,1604790629,82,59.06,80.86,36.28,12.03
Pisco,75,PE,1604790630,77,-13.7,-76.22,66.2,5.82
Sisimiut,90,GL,1604790417,86,66.94,-53.67,15.57,13.33
Vila Velha,90,BR,1604790630,83,-20.33,-40.29,77.0,4.7
Springdale,40,US,1604790355,49,36.19,-94.13,73.4,16.11
Cabedelo,40,BR,1604790630,83,-6.98,-34.83,78.8,12.75
Cayenne,0,GF,1604790630,100,4.93,-52.33,78.8,3.36
Ribeira Grande,21,PT,1604790630,73,38.52,-28.7,61.48,16.58
Boden,0,SE,1604790631,69,65.83,21.69,35.6,5.82
Dubrovnik,0,HR,1604790631,54,42.65,18.09,59.0,4.7
Mananara,93,MG,1604790631,90,-16.17,49.77,72.34,4.09
Ust-Tsilma,97,RU,1604790631,98,65.44,52.15,31.75,4.0
Asău,0,RO,1604790632,92,46.43,26.4,42.01,3.42
Itoman,75,JP,1604790632,94,26.12,127.67,77.0,5.82
Hastings,17,GB,1604790632,93,50.86,0.57,53.6,6.93
Mareeba,15,AU,1604790632,62,-17.0,145.43,84.2,6.93
Turukhansk,100,RU,1604790632,97,65.82,87.98,20.08,18.21
Port Keats,10,AU,1604790632,52,-14.25,129.55,90.07,4.14
Kruisfontein,0,ZA,1604790632,90,-34.0,24.73,57.0,1.01
Weihe,93,CN,1604790632,60,33.0,105.32,47.79,2.1
Slavyanka,34,RU,1604790478,74,42.86,131.38,35.06,22.73
Marsá Maţrūḩ,91,EG,1604790633,68,31.35,27.25,70.65,15.95
Ilulissat,13,GL,1604790633,47,69.22,-51.1,15.8,5.82
Saurimo,100,AO,1604790633,97,-9.66,20.39,65.86,4.52
Makakilo City,90,US,1604790633,66,21.35,-158.09,84.2,5.82
Walvis Bay,0,NA,1604790633,87,-22.96,14.51,59.0,4.7
Quatre Cocos,40,MU,1604790633,78,-20.21,57.76,73.4,5.82
Longyearbyen,96,SJ,1604790633,79,78.22,15.64,28.4,4.74
Laas,5,IT,1604790633,86,46.62,10.7,44.01,1.83
Khani,40,GE,1604790633,87,41.96,42.96,53.6,11.41
Shimoda,97,JP,1604790634,89,34.67,138.95,59.0,14.14
Puerto Escondido,20,MX,1604790461,70,15.85,-97.07,84.2,4.7
Pathein,0,MM,1604790634,92,16.78,94.73,73.44,5.48
Beloha,0,MG,1604790634,66,-25.17,45.05,71.96,5.03
Zaysan,0,KZ,1604790634,69,47.47,84.87,37.42,2.19
Guerrero Negro,49,MX,1604790634,65,27.98,-114.06,67.59,20.24
Bonavista,93,CA,1604790634,86,48.65,-53.11,37.0,3.36
Tosya,1,TR,1604790635,79,41.02,34.04,40.59,0.94
Yuancheng,0,CN,1604790635,70,36.65,107.79,37.38,0.74
Fairbanks,75,US,1604790430,73,64.84,-147.72,27.0,2.55
Atakpamé,100,TG,1604790635,79,7.53,1.13,75.9,4.7
Ranong,41,TH,1604790635,87,9.97,98.63,77.13,3.8
Oranjemund,21,NA,1604790635,86,-28.55,16.43,61.84,2.3
Alofi,25,NU,1604790635,74,-19.06,-169.92,78.8,13.87
Innisfail,33,AU,1604790635,65,-17.53,146.03,81.73,8.05
Rājula,0,IN,1604790636,41,21.05,71.43,75.06,8.99
Inzhavino,0,RU,1604790636,92,52.32,42.49,37.27,9.71
Ilo,62,PE,1604790636,79,-17.64,-71.34,63.28,1.32
Mumford,100,GH,1604790636,84,5.26,-0.76,79.66,12.53
Pemba,20,MZ,1604790637,83,-12.97,40.52,77.0,4.7
Lompoc,75,US,1604790637,67,34.64,-120.46,57.2,17.22
Yulara,22,AU,1604790637,14,-25.24,130.99,75.2,9.17
Kenda,0,IN,1604790637,51,23.2,86.53,62.53,6.89
Kununurra,71,AU,1604790637,74,-15.77,128.73,78.8,5.82
Sur,0,OM,1604790637,71,22.57,59.53,75.9,7.87
Tura,0,IN,1604790637,88,25.52,90.22,63.41,4.21
Port Augusta,1,AU,1604790637,59,-32.5,137.77,71.01,6.93
Bilibino,100,RU,1604790638,90,68.05,166.44,0.88,1.74
Trairi,1,BR,1604790414,74,-3.28,-39.27,79.75,10.67
Comodoro Rivadavia,0,AR,1604790638,45,-45.87,-67.5,68.0,14.99
Kibre Mengist,99,ET,1604790638,96,5.88,38.98,59.49,1.41
Marquette,1,US,1604790638,60,46.53,-87.63,68.0,11.41
San Cristobal,75,VE,1604790638,78,7.77,-72.22,80.6,8.05
Pemangkat,97,ID,1604790638,87,1.17,108.97,77.09,5.03
Flinders,35,AU,1604790638,59,-34.58,150.86,64.99,3.0
Pictou,95,CA,1604790638,75,45.68,-62.72,46.4,12.75
Yokadouma,100,CM,1604790639,93,3.52,15.05,69.73,0.81
Antofagasta,75,CL,1604790415,72,-23.65,-70.4,62.6,11.41
Aloleng,100,PH,1604790639,84,16.13,119.78,80.04,10.8
Mahébourg,40,MU,1604790639,78,-20.41,57.7,73.4,5.82
Plettenberg Bay,0,ZA,1604790639,70,-34.05,23.37,60.98,4.81
Wagar,0,SD,1604790639,64,16.15,36.2,74.34,7.4
St. George's,20,GD,1604790639,83,12.06,-61.75,82.4,18.34
Port Hedland,0,AU,1604790639,74,-20.32,118.57,78.8,11.41
Munteni,0,RO,1604790640,80,45.93,27.43,47.01,0.49
Olinda,75,BR,1604790640,78,-8.01,-34.86,80.6,11.41
Ascension,75,US,1604790640,83,30.22,-90.9,72.0,9.08
Alma,100,CA,1604790477,65,48.55,-71.65,41.0,2.06
Feltre,0,IT,1604790506,91,46.02,11.91,46.0,3.33
Berezovyy,81,RU,1604790640,87,51.67,135.7,17.22,2.82
Kiunga,100,PG,1604790640,87,-6.12,141.29,76.84,1.66
Saint-Augustin,0,CA,1604790640,89,51.23,-58.65,31.73,17.31
Shenzhen,32,CN,1604790641,67,22.55,114.07,77.0,11.48
Veracruz,5,MX,1604790493,61,19.33,-96.67,82.4,10.29
Huambo,99,AO,1604790641,56,-12.78,15.74,66.52,1.72
Maceió,75,BR,1604790641,88,-9.67,-35.74,77.0,5.82
Diamantino,42,BR,1604790641,52,-14.41,-56.45,82.76,6.49
Neyyāttinkara,20,IN,1604790642,78,8.4,77.08,82.4,2.24
Oktyabr'skiy,97,RU,1604790642,91,54.48,53.47,33.75,10.89
Gornopravdinsk,100,RU,1604790642,97,60.05,69.9,34.57,5.21
Boyolangu,26,ID,1604790642,82,-8.12,111.89,76.96,3.2
Novo Horizonte,0,BR,1604790642,34,-21.47,-49.22,78.84,5.48
Vao,80,NC,1604790642,71,-22.67,167.48,73.58,11.81
Port Antonio,75,JM,1604790642,94,18.18,-76.46,75.99,18.34
Winneba,0,GH,1604790643,83,5.35,-0.62,80.6,9.17
Portsmouth,53,GB,1604790643,94,50.8,-1.09,55.0,9.31
Kuybysheve,46,UA,1604790643,78,47.36,36.65,44.26,5.84
Suixi,0,CN,1604790643,44,33.89,116.77,50.52,4.5
Pyapon,24,MM,1604790643,93,16.28,95.68,74.21,6.33
La Ronge,100,CA,1604790643,79,55.1,-105.28,21.2,6.93
Vrangel',62,RU,1604790643,69,42.73,133.08,39.74,25.66
Dudinka,75,RU,1604790643,92,69.41,86.18,17.6,22.37
Casay,100,PH,1604790644,81,9.82,123.55,79.38,5.79
Makurdi,65,NG,1604790644,46,7.74,8.51,77.11,2.91
Sanmenxia,5,CN,1604790644,47,34.77,111.18,48.29,1.14
Saint-Ambroise,100,CA,1604790644,65,48.55,-71.33,41.0,1.57
Kuching,40,MY,1604790644,100,1.55,110.33,75.2,1.52
Stavern,53,NO,1604790644,87,59.0,10.03,42.8,1.12
Agirish,30,RU,1604790645,98,61.92,63.02,28.33,5.82
Mil'kovo,19,RU,1604790645,86,54.72,158.62,25.95,0.4
Powell River,20,CA,1604790645,52,49.85,-124.54,48.2,23.04
Agüimes,20,ES,1604790645,77,27.91,-15.45,68.0,2.24
Front Royal,1,US,1604790645,45,38.92,-78.19,64.4,2.08
Cassilândia,27,BR,1604790645,43,-19.11,-51.73,82.4,2.06
George Town,20,MY,1604790559,94,5.41,100.34,78.8,3.36
Launceston,0,AU,1604790470,62,-41.45,147.17,63.0,9.17
Imbituba,40,BR,1604790645,83,-28.24,-48.67,69.8,9.17
Igarka,100,RU,1604790646,96,67.47,86.58,14.85,13.47
San Borja,28,BO,1604790646,30,-14.82,-66.85,89.74,1.81
São Filipe,47,CV,1604790646,77,14.9,-24.5,79.32,10.25
Ola,100,RU,1604790646,87,59.58,151.28,11.43,15.73
Rodrigues Alves,20,BR,1604790646,79,-7.74,-72.65,86.0,2.24
Zonhoven,65,BE,1604790646,100,50.99,5.37,46.4,2.24
Portobelo,39,PA,1604790647,99,9.55,-79.65,81.0,8.99
Cidreira,27,BR,1604790647,84,-30.18,-50.21,67.86,16.04
Carutapera,72,BR,1604790647,79,-1.2,-46.02,80.35,8.14
Santa Rita,40,BR,1604790497,83,-7.11,-34.98,78.8,12.75
Kavaratti,0,IN,1604790648,75,10.57,72.64,82.69,8.34
Hirara,40,JP,1604790648,100,24.8,125.28,77.0,4.7
Bocaiúva,75,BR,1604790648,48,-17.11,-43.81,82.4,6.64
Ulagan,11,RU,1604790648,89,50.63,87.96,28.11,3.11
Umluj,61,SA,1604790648,64,25.02,37.27,72.03,6.64
Hobyo,68,SO,1604790649,80,5.35,48.53,79.23,9.78
Arrondissement de Tarbes,90,FR,1604790649,93,43.25,0.17,55.4,5.82
Portel,65,BR,1604790649,84,-1.94,-50.82,78.31,4.0
Santa Cruz Cabrália,75,BR,1604790649,88,-16.28,-39.02,77.0,9.17
Faya,0,SA,1604790649,62,18.39,42.45,57.2,0.63
Iralaya,97,HN,1604790650,85,15.0,-83.23,79.47,9.01
Tombouctou,7,ML,1604790650,15,20.0,-3.0,82.4,9.86
Porgera,96,PG,1604790650,89,-5.47,143.2,48.69,3.02
Henties Bay,0,NA,1604790650,92,-22.12,14.28,59.0,1.99
Coquimbo,0,CL,1604790424,77,-29.95,-71.34,59.0,12.75
Jacareacanga,98,BR,1604790650,69,-6.22,-57.75,81.1,0.74
Adrar,37,MR,1604790650,18,20.5,-10.07,84.15,7.27
Tautira,75,PF,1604790651,66,-17.73,-149.15,84.2,6.93
Chimbote,75,PE,1604790651,79,-9.09,-78.58,63.66,9.04
Atasū,99,KZ,1604790651,44,48.68,71.64,47.66,14.74
Mendi,77,PG,1604790651,72,-6.18,143.65,66.52,0.78
Doha,0,QA,1604790506,69,25.29,51.53,82.99,2.24
Parbatipur,0,BD,1604790651,81,25.66,88.92,65.44,5.95
Haverfordwest,100,GB,1604790651,82,51.8,-4.97,57.2,6.93
Gloversville,1,US,1604790372,51,43.05,-74.34,62.6,4.7
Coyhaique,0,CL,1604790651,37,-45.58,-72.07,66.2,8.05
Gmina Lwówek Śląski,0,PL,1604790652,78,51.11,15.59,44.01,1.99
Opuwo,11,NA,1604790652,27,-18.06,13.84,68.41,5.73
Korla,0,CN,1604790652,73,41.76,86.15,34.21,3.31
Nazas,0,MX,1604790652,17,25.23,-104.13,81.48,8.57
Kahului,40,US,1604790652,52,20.89,-156.47,87.8,17.22
Paphos,20,CY,1604790652,55,34.77,32.42,64.4,2.24
Anáhuac,5,MX,1604790652,32,27.23,-100.15,84.2,5.82
Soller,0,ES,1604790652,93,39.77,2.72,60.01,2.24
Dhidhdhoo,82,MV,1604790653,78,6.88,73.1,82.98,11.72
Mackenzie,75,CA,1604790653,54,55.3,-123.17,30.2,10.29
Ouadda,37,CF,1604790653,60,8.08,22.4,70.32,1.9
Bichura,66,RU,1604790653,90,50.59,107.6,22.44,3.24
Prince Rupert,1,CA,1604790653,60,54.32,-130.32,44.6,12.75
Ganzhou,0,CN,1604790653,52,28.82,115.43,57.18,5.28
Muğla Province,0,TR,1604790653,41,37.23,28.36,62.6,5.82
Al Bardīyah,91,LY,1604790653,78,31.76,25.09,68.34,20.47
Montrose,40,US,1604790563,44,38.42,-108.27,59.0,29.97
NEDJO,17,ET,1604790654,82,9.5,35.5,55.15,2.73
Petropavlovsk-Kamchatskiy,27,RU,1604790654,79,53.05,158.65,23.0,6.71
Cortez,75,US,1604790654,62,37.35,-108.59,55.4,24.16
Baharly,97,TM,1604790654,70,38.44,57.43,54.73,2.82
Tobol,100,KZ,1604790654,95,52.68,62.58,38.01,12.26
Moses Lake,90,US,1604790654,25,47.13,-119.28,51.8,24.16
Baghdad,0,IQ,1604790365,52,33.34,44.4,68.0,9.17
Van,40,TR,1604790575,80,38.49,43.38,39.2,3.36
Şırnak,0,TR,1604790654,73,37.52,42.46,46.26,2.64
Uauá,20,BR,1604790654,69,-9.84,-39.48,77.86,18.48
Charcas,59,MX,1604790654,24,23.13,-101.12,69.64,4.38
Sartell,1,US,1604790654,56,45.62,-94.21,68.0,14.99
Władysławowo,90,PL,1604790655,93,54.79,18.4,43.0,5.82
Tocopilla,17,CL,1604790655,53,-22.09,-70.2,63.41,3.94
Verkhovazh'ye,100,RU,1604790655,79,60.75,42.05,45.41,13.58
Hue,75,VN,1604790655,88,16.47,107.6,73.4,4.7
Vitim,100,RU,1604790655,90,59.45,112.56,4.12,2.59
Lashio,2,MM,1604790485,93,22.93,97.75,58.78,1.59
Nantucket,1,US,1604790655,87,41.28,-70.1,57.99,10.29
Phalaborwa,0,ZA,1604790655,61,-23.94,31.14,82.4,2.24
Rūdbār,20,AF,1604790656,29,30.15,62.6,58.05,2.98
Salalah,0,OM,1604790656,64,17.02,54.09,73.4,3.36
Eucaliptus,32,BO,1604790656,42,-17.58,-67.52,54.05,20.0
Hīt,78,IQ,1604790656,50,33.64,42.83,66.16,9.51
Badarwās,0,IN,1604790656,32,24.97,77.57,61.61,2.59
Ormara,0,PK,1604790656,46,25.21,64.64,75.81,5.03
Kloulklubed,100,PW,1604790656,87,7.04,134.26,79.66,20.65
Lagos,100,NG,1604790504,89,6.58,3.75,77.77,5.01
Tongchuanshi,31,CN,1604790656,51,35.08,109.09,46.38,4.81
Nerang,40,AU,1604790657,72,-27.98,153.33,73.0,7.0
Leh,0,IN,1604790657,61,34.17,77.58,27.27,4.36
Nizwá,18,OM,1604790657,77,22.93,57.53,66.29,1.25
Teguise,20,ES,1604790657,72,29.06,-13.56,64.4,3.36
Arrondissement de Narbonne,28,FR,1604790657,65,43.08,2.83,60.01,4.0
Bayan,90,CN,1604790657,61,46.08,127.4,32.0,17.98
Sioux Lookout,90,CA,1604790657,91,50.1,-91.92,32.0,8.05
Portland,90,US,1604790544,81,45.52,-122.68,48.2,5.82
Uherský Brod,0,CZ,1604790657,87,49.03,17.65,46.0,3.0
Leirvik,61,NO,1604790658,99,59.78,5.5,48.0,7.11
Xichang,98,CN,1604790658,68,27.9,102.26,54.59,2.68
Crişeni,23,RO,1604790658,93,47.23,23.05,41.0,1.12
Rio das Ostras,90,BR,1604790658,78,-22.53,-41.95,75.2,3.36
Khovd,41,MN,1604790658,90,48.01,91.64,26.73,0.47
Listvyanka,90,RU,1604790658,92,51.85,104.87,28.4,4.47
Tromsø,90,NO,1604790658,87,69.65,18.96,33.8,48.32
Inhambane,5,MZ,1604790658,79,-23.86,35.38,77.38,10.31
San Ramon,40,US,1604790485,36,37.78,-121.98,62.6,9.17
Fredericton,1,CA,1604790659,81,45.95,-66.67,52.0,2.24
Tabou,86,CI,1604790659,87,4.42,-7.35,78.58,5.23
Lenger,40,KZ,1604790659,14,42.18,69.88,66.2,11.18
Kol'chugino,5,RU,1604790659,92,56.3,39.38,41.02,11.45
Caloundra,61,AU,1604790659,81,-26.8,153.13,69.01,7.0
Burns Lake,0,CA,1604790659,37,54.23,-125.75,35.6,6.93
Tenabo,40,MX,1604790659,78,20.05,-90.23,82.4,11.41
Taoudenni,56,ML,1604790659,15,22.68,-3.98,82.29,9.73
Gizo Government Station,12,SB,1604790660,68,-8.1,156.84,84.72,4.25
Okha,74,RU,1604790660,94,53.57,142.95,25.38,9.51
Bubaque,0,GW,1604790660,78,11.28,-15.83,84.81,14.72
Lunéville,90,FR,1604790660,93,48.6,6.5,55.4,4.7
Zeya,48,RU,1604790660,83,53.75,127.27,9.01,7.29
Athabasca,100,CA,1604790660,92,54.72,-113.29,21.2,11.41
Ismailia,67,EG,1604790365,63,30.6,32.27,67.48,3.06
Norman Wells,75,CA,1604790660,100,65.28,-126.83,28.4,3.36
Sālūmbar,0,IN,1604790661,31,24.13,74.05,65.35,4.56
Quang Ngai,44,VN,1604790661,89,15.12,108.8,71.56,7.25
Barzas,0,RU,1604790661,86,55.72,86.32,33.8,8.95
Oodweyne,45,SO,1604790661,37,9.41,45.06,67.05,0.89
Gigmoto,97,PH,1604790661,81,13.78,124.39,80.04,6.04
Atikokan,100,CA,1604790661,93,48.76,-91.62,50.7,6.35
Kismayo,99,SO,1604790661,81,-0.36,42.55,79.83,8.9
Ben Tre,93,VN,1604790662,95,10.23,106.38,74.86,3.69
Olafsvik,74,IS,1604790662,69,64.89,-23.71,41.02,27.98
Saint-Pierre,0,RE,1604790662,77,-21.34,55.48,69.8,5.82
Tessalit,54,ML,1604790662,21,20.2,1.01,73.54,12.75
Zharkent,12,KZ,1604790662,62,44.16,80.0,39.99,2.39
Huicheng,90,CN,1604790662,83,23.04,116.29,73.4,9.1
Mirny,70,RU,1604790662,84,62.54,113.96,-0.4,2.24
Marawi,98,PH,1604790662,90,8.0,124.29,73.99,5.01
Rawson,94,AR,1604790663,46,-43.3,-65.1,63.1,20.36
Zapolyarnyy,75,RU,1604790598,86,69.42,30.81,33.8,34.45
Oliva,0,ES,1604790663,7,38.92,-0.12,60.01,3.0
Morant Bay,75,JM,1604790446,94,17.88,-76.41,75.99,18.34
Kushiro,75,JP,1604790663,93,42.98,144.37,44.6,5.82
Mogocha,61,RU,1604790663,81,53.73,119.77,10.27,1.39
San Miguel de Cozumel,75,MX,1604790663,74,20.51,-86.95,84.2,9.17
Uinskoye,94,RU,1604790663,94,56.88,56.58,32.31,7.67
Fuerte Olimpo,47,PY,1604790663,28,-21.04,-57.87,88.45,3.8
Sakakah,0,SA,1604790664,51,29.97,40.21,62.6,10.29
Ordu,75,TR,1604790664,100,40.91,37.68,55.4,1.12
Maumere,82,ID,1604790664,63,-8.62,122.21,83.14,2.73
Vestmannaeyjar,89,IS,1604790664,70,63.44,-20.27,44.62,20.29
Great Yarmouth,0,GB,1604790664,99,52.61,1.73,52.0,9.26
Bud,1,US,1604790664,42,39.45,-86.18,66.2,3.76
Tabas,100,IR,1604790665,15,33.6,56.92,59.0,4.7
Kozhevnikovo,39,RU,1604790665,64,56.26,83.97,41.0,12.1
Lake City,40,US,1604790665,73,30.19,-82.64,75.99,5.82
Sarankhola,0,BD,1604790665,80,22.31,89.79,62.74,4.72
Mayo,1,US,1604790665,82,38.89,-76.51,61.0,3.36
Richards Bay,1,ZA,1604790665,91,-28.78,32.04,71.85,6.06
Koutsouras,5,GR,1604790665,61,35.03,25.95,66.0,8.01
Padang,100,ID,1604790413,84,-0.95,100.35,76.84,5.79
Ayr,20,GB,1604790665,81,55.46,-4.63,44.6,8.05
Les Cayes,100,HT,1604790666,84,18.2,-73.75,78.53,7.45
Dicabisagan,100,PH,1604790666,85,17.08,122.42,79.5,6.26
Egvekinot,100,RU,1604790666,98,66.32,-179.17,21.88,5.26
Nizhneudinsk,100,RU,1604790666,73,54.91,99.03,40.73,7.23
Gagra,2,GE,1604790666,87,43.33,40.22,44.6,8.95
kimparana,0,ML,1604790666,17,12.83,-4.92,77.13,7.05
Chāndil,0,IN,1604790666,55,22.97,86.05,61.5,4.03
Batemans Bay,2,AU,1604790666,63,-35.72,150.18,64.0,3.0
Mattru,69,SL,1604790666,96,7.62,-11.83,75.4,1.66
Mountain Home,90,US,1604790383,61,43.13,-115.69,50.0,11.41
Changji,0,CN,1604790667,74,44.02,87.32,32.0,4.47
Ongandjera,6,NA,1604790667,24,-17.88,15.07,77.02,13.15
Charters Towers,38,AU,1604790667,59,-20.1,146.27,79.32,14.97
Raudeberg,64,NO,1604790667,100,61.99,5.14,46.4,3.36
Tirau,74,NZ,1604790648,76,-37.98,175.75,69.01,5.01
Povenets,69,RU,1604790667,69,62.85,34.83,40.41,16.28
Shalakusha,99,RU,1604790667,71,62.22,40.25,42.53,13.85
Sabang,95,ID,1604790667,76,5.89,95.32,80.13,4.23
Nicoya,75,CR,1604790667,88,10.15,-85.45,78.8,5.82
Grindavik,75,IS,1604790668,86,63.84,-22.43,39.2,17.22
Kangaatsiaq,26,GL,1604790668,84,68.31,-53.46,17.08,6.91
Acajutla,40,SV,1604790668,69,13.59,-89.83,82.4,2.24
