City,Cloudiness,Country,Date,Humidity,Lat,Lng,Max Temp,Wind Speed
Tuatapere,100,NZ,1604760079,94,-46.13,167.68,44.01,1.99
Mackay,75,AU,1604759789,88,-21.15,149.2,77.0,17.22
Dokka,0,NO,1604760079,96,60.84,10.06,39.0,1.74
Ardakān,40,IR,1604760079,9,32.31,54.02,71.6,4.97
Puerto Ayora,81,EC,1604760080,71,-0.74,-90.35,70.0,5.99
Talaya,100,RU,1604760080,90,61.38,152.75,-2.87,4.03
Ushuaia,75,AR,1604760080,43,-54.8,-68.3,55.4,17.22
Gurupi,100,BR,1604760080,69,-11.73,-49.07,79.56,4.94
Rikitea,60,PF,1604760080,71,-23.12,-134.97,71.8,18.34
Carutapera,43,BR,1604759965,54,-1.2,-46.02,89.58,12.26
Mataura,100,NZ,1604760080,94,-46.19,168.86,44.01,1.99
Lebu,0,CL,1604760081,61,-37.62,-73.65,56.52,21.85
Dikson,3,RU,1604760081,89,73.51,80.55,-2.09,9.55
Tuktoyaktuk,90,CA,1604760080,92,69.45,-133.04,26.6,27.51
Bendigo,0,AU,1604760081,73,-36.77,144.28,46.99,7.61
Avarua,100,CK,1604759808,100,-21.21,-159.78,68.0,2.24
Tiksi,53,RU,1604760081,92,71.69,128.87,-7.83,2.62
Nanchong,0,CN,1604760081,61,30.8,106.08,64.26,1.07
Adrar,100,MR,1604760081,15,20.5,-10.07,94.82,3.85
Esperance,75,AU,1604760081,87,-33.87,121.9,57.2,6.93
Qaanaaq,0,GL,1604760082,72,77.48,-69.36,-11.9,5.12
Bambous Virieux,20,MU,1604760082,78,-20.34,57.76,75.2,11.41
Cape Town,75,ZA,1604759977,68,-33.93,18.42,66.2,32.21
Port Elizabeth,0,ZA,1604760054,60,-33.92,25.57,73.4,11.41
Hobart,0,AU,1604759947,81,-42.88,147.33,45.0,5.82
Dingle,100,PH,1604760082,92,11.0,122.67,73.38,7.52
Busselton,18,AU,1604760083,89,-33.65,115.33,59.0,5.86
Rantepao,100,ID,1604760083,89,-2.97,119.9,67.39,1.59
Paamiut,100,GL,1604760083,93,61.99,-49.67,29.41,12.88
Praia da Vitória,40,PT,1604760083,63,38.73,-27.07,64.99,22.41
Gorodishche,75,RU,1604760083,87,48.8,44.47,44.74,15.66
Necochea,1,AR,1604760083,65,-38.55,-58.74,71.01,5.01
George Town,40,MY,1604760084,83,5.41,100.34,80.6,2.24
Ancud,0,CL,1604760084,50,-41.87,-73.82,55.99,14.99
Mnogovershinnyy,62,RU,1604760084,96,53.94,139.92,15.22,4.41
Shagonar,5,RU,1604760084,88,51.53,92.8,33.78,2.98
Manaus,75,BR,1604760054,74,-3.1,-60.02,87.8,8.05
Butaritari,100,KI,1604760085,76,3.07,172.79,80.58,11.59
Yar-Sale,94,RU,1604760085,99,66.83,70.83,27.55,4.83
Port Alfred,34,ZA,1604760085,74,-33.59,26.89,72.5,18.1
Baraboo,1,US,1604760085,76,43.47,-89.74,59.0,10.29
Riyadh,0,SA,1604759883,20,24.69,46.72,84.2,5.82
Margate,4,GB,1604760086,84,51.38,1.39,57.0,1.99
College,90,US,1604760086,74,64.86,-147.8,33.8,3.36
Mvuma,35,ZW,1604760086,26,-19.28,30.53,87.82,6.02
Hermanus,6,ZA,1604759907,50,-34.42,19.23,71.01,15.01
Patea,100,NZ,1604760087,96,-39.76,174.48,63.0,15.99
Chik,0,RU,1604760087,71,54.99,82.43,42.87,11.18
Mizque,7,BO,1604760087,33,-17.94,-65.34,76.14,6.08
Cape Canaveral,1,US,1604760054,69,28.41,-80.6,82.0,11.41
Vaini,20,TO,1604760087,93,-21.2,-175.2,66.2,4.7
Kiryat Gat,100,IL,1604760004,72,31.61,34.76,72.0,6.87
Soyo,75,AO,1604760088,83,-6.13,12.37,80.6,11.41
Arraial do Cabo,75,BR,1604760088,73,-22.97,-42.03,75.2,6.93
Komarikhinskiy,75,RU,1604760088,100,58.1,57.12,74.07,8.95
Fort-Shevchenko,99,KZ,1604760088,62,44.51,50.26,51.75,24.54
Ribeira Grande,40,PT,1604760089,72,38.52,-28.7,62.6,14.99
New Norfolk,1,AU,1604760089,63,-42.78,147.06,45.0,2.75
Kasama,0,ZM,1604760089,13,-10.21,31.18,90.03,3.65
Mandalī,32,IQ,1604760089,52,33.75,45.55,69.67,8.79
Lødingen,66,NO,1604760089,74,68.41,16.0,37.99,25.28
Nikolskoye,0,RU,1604760090,71,59.7,30.79,50.0,17.9
Demirci,7,TR,1604760090,52,39.05,28.66,50.0,6.96
Provideniya,84,RU,1604760090,91,64.38,-173.3,31.53,19.13
Hailar,76,CN,1604760091,91,49.2,119.7,16.75,11.18
Bluff,100,NZ,1604760092,94,-46.6,168.33,44.01,1.99
Sovetskiy,100,RU,1604760092,98,61.36,63.58,34.23,3.33
Virginia Beach,40,US,1604760093,88,36.85,-75.98,66.99,3.53
Pringsewu,92,ID,1604760093,88,-5.36,104.97,75.02,0.22
Half Moon Bay,20,US,1604760093,87,37.46,-122.43,50.0,5.57
Kaitangata,100,NZ,1604760094,80,-46.28,169.85,46.0,4.0
Puri,0,IN,1604760094,64,19.8,85.85,75.2,7.99
Castro,0,BR,1604760094,34,-24.79,-50.01,77.14,3.62
Wanning,0,CN,1604760094,78,18.8,110.4,72.66,8.97
Teguise,40,ES,1604760094,69,29.06,-13.56,73.4,5.82
Boysun,93,UZ,1604760095,27,38.21,67.2,56.37,4.12
Saint Anthony,1,US,1604760095,77,45.02,-93.22,61.0,12.75
Auki,95,SB,1604760095,84,-8.77,160.7,77.95,3.69
Punta Arenas,75,CL,1604760095,54,-53.15,-70.92,57.2,21.92
Juneau,1,US,1604760080,92,58.3,-134.42,25.0,3.98
Ketchikan,20,US,1604760095,80,55.34,-131.65,37.4,9.17
Olavarría,0,AR,1604760095,48,-36.89,-60.32,77.65,1.14
Taoudenni,54,ML,1604760095,9,22.68,-3.98,99.28,6.89
Cayenne,75,GF,1604760096,59,4.93,-52.33,89.6,8.05
Kondoa,98,TZ,1604760096,25,-4.9,35.78,83.7,11.65
Chui,26,UY,1604760096,70,-33.7,-53.46,70.2,12.5
Westport,1,US,1604760008,71,41.14,-73.36,63.0,3.36
Albany,38,US,1604760096,57,42.6,-73.97,57.99,2.77
Norman Wells,90,CA,1604760096,92,65.28,-126.83,17.6,2.24
Jamestown,1,US,1604759971,71,42.1,-79.24,55.99,3.36
Bontang,19,ID,1604760076,82,0.13,117.5,80.31,6.58
Kindu,98,CD,1604760096,82,-2.95,25.95,78.8,3.27
Lorengau,13,PG,1604760096,77,-2.02,147.27,81.46,10.0
Narsaq,75,GL,1604760097,95,60.92,-46.05,32.0,10.29
Houma,40,US,1604760000,88,29.6,-90.72,70.0,11.41
Metu,99,ET,1604760097,92,8.3,35.58,64.06,1.79
Swan River,100,CA,1604760097,92,52.11,-101.27,23.0,9.17
Mount Gambier,0,AU,1604760097,87,-37.83,140.77,42.8,5.82
Atuona,70,PF,1604760097,74,-9.8,-139.03,76.91,16.51
Pevek,100,RU,1604760097,97,69.7,170.31,18.23,2.51
Sukhumi,80,GE,1604760097,66,43.0,41.02,56.53,1.9
Yellowknife,20,CA,1604760098,83,62.46,-114.35,-4.0,4.7
Surab,0,PK,1604760098,31,28.49,66.26,55.53,4.03
East London,0,ZA,1604760035,71,-33.02,27.91,73.87,19.93
Alice Springs,0,AU,1604760098,13,-23.7,133.88,71.6,6.93
Mahébourg,20,MU,1604760098,78,-20.41,57.7,75.2,11.41
Naze,75,JP,1604760098,88,28.37,129.48,77.0,11.41
Kupang,21,ID,1604760098,75,-10.17,123.58,81.46,5.08
Chokurdakh,100,RU,1604760098,94,70.63,147.92,1.83,7.23
Atasū,100,KZ,1604760069,48,48.68,71.64,46.2,12.68
Kungurtug,93,RU,1604760099,94,50.6,97.52,23.52,1.21
Marzuq,0,YE,1604760099,39,14.4,46.47,72.19,6.49
Rawson,14,AR,1604760099,33,-43.3,-65.1,69.69,21.45
Linqiong,0,CN,1604760099,87,30.42,103.46,68.0,1.03
Richards Bay,0,ZA,1604760099,74,-28.78,32.04,76.96,10.8
Caravelas,26,BR,1604760099,60,-17.71,-39.25,84.51,6.82
Ixtapa,5,MX,1604760099,77,20.7,-105.2,75.0,8.05
Laas,5,IT,1604760100,61,46.62,10.7,55.0,6.93
Aldan,100,RU,1604760100,92,58.6,125.39,-5.17,4.79
Sambava,97,MG,1604760100,78,-14.27,50.17,77.92,14.38
Perth,0,AU,1604760014,72,-31.93,115.83,66.2,10.29
Bengkulu,100,ID,1604760100,88,-3.8,102.27,77.94,5.19
Mirabela,40,BR,1604760100,51,-16.26,-44.16,84.2,5.82
Makkah al Mukarramah,50,SA,1604759979,57,21.43,39.83,82.04,10.42
Mundo Nuevo (Ojo de Agua),82,MX,1604760100,80,18.7,-95.5,77.99,15.79
Strezhevoy,0,RU,1604760101,80,60.73,77.59,35.6,6.71
Oliva,17,ES,1604760101,75,38.92,-0.12,69.01,0.56
Avallon,100,FR,1604760101,67,47.48,3.9,63.0,5.68
Huilong,0,CN,1604760101,80,31.81,121.66,66.0,6.69
Voss,100,NO,1604760101,97,60.62,6.42,46.99,3.56
Hambantota,20,LK,1604760101,100,6.12,81.12,77.0,2.24
Japura,90,ID,1604760101,93,-0.32,102.35,75.65,2.39
Constantine,40,DZ,1604760101,27,36.37,6.61,75.2,11.41
Maseru,20,LS,1604760102,21,-29.32,27.48,82.4,11.41
Sitka,20,US,1604760102,93,57.05,-135.33,29.68,3.53
Guiratinga,81,BR,1604760102,40,-16.35,-53.76,92.08,8.19
Barrow,90,US,1604760102,86,71.29,-156.79,30.2,20.8
Kieta,71,PG,1604760102,76,-6.22,155.63,78.58,1.88
Kaeo,32,NZ,1604760102,91,-35.1,173.78,64.0,5.99
Hong Kong,8,HK,1604759954,51,22.29,114.16,80.01,4.0
Erenhot,0,CN,1604760102,77,43.65,111.98,28.89,6.49
Cravo Norte,30,CO,1604760103,61,6.3,-70.2,87.24,6.49
Saskylakh,10,RU,1604760103,90,71.92,114.08,-8.5,5.88
Severo-Kuril'sk,96,RU,1604760103,80,50.68,156.12,35.44,6.44
Muzhi,99,RU,1604760103,99,65.37,64.67,29.61,1.99
Nālūt,0,LY,1604760103,24,30.33,10.85,75.51,9.17
Torbay,90,CA,1604760103,93,47.67,-52.73,55.0,32.21
Panabá,0,MX,1604760103,82,21.28,-88.27,80.65,9.04
Nouadhibou,9,MR,1604760103,45,20.93,-17.03,86.0,11.41
Franca,0,BR,1604760103,32,-20.54,-47.4,85.96,7.78
Lidköping,100,SE,1604760104,100,58.51,13.16,50.0,12.75
Khanbari,17,NP,1604760104,63,27.37,87.2,60.66,2.62
Kapaa,90,US,1604760104,83,22.08,-159.32,78.8,11.41
Talara,75,PE,1604760104,68,-4.58,-81.27,69.8,12.75
Huarmey,10,PE,1604760104,65,-10.07,-78.15,67.46,8.99
Carnarvon,90,AU,1604760104,83,-24.87,113.63,71.6,17.22
Hilo,90,US,1604760104,88,19.73,-155.09,71.01,12.75
Thinadhoo,100,MV,1604760105,67,0.53,72.93,84.63,5.01
Ati,2,TD,1604760105,14,13.22,18.34,94.15,8.48
Arkhara,59,RU,1604760105,98,49.42,130.08,20.1,1.88
Iquitos,75,PE,1604760105,74,-3.75,-73.25,82.4,8.05
Arlit,0,NE,1604760105,12,18.74,7.39,87.76,5.37
Hithadhoo,95,MV,1604760105,74,-0.6,73.08,83.37,11.16
Husavik,75,IS,1604760105,52,66.04,-17.34,42.8,19.46
Kurumkan,75,RU,1604760105,79,54.3,110.3,14.79,3.15
San Andrés,40,CO,1604760106,79,12.58,-81.7,84.2,4.7
Kyrylivka,0,UA,1604760106,67,46.38,35.37,54.12,16.28
Ol'ga,1,RU,1604760106,77,43.74,135.29,36.54,5.17
Vardø,40,NO,1604760106,75,70.37,31.11,35.6,16.11
Saint-François,0,FR,1604760106,55,46.42,3.91,64.4,8.05
Cidreira,14,BR,1604759913,72,-30.18,-50.21,70.93,15.08
Lompoc,20,US,1604760068,81,34.64,-120.46,51.8,17.22
Chapais,90,CA,1604760106,86,49.78,-74.85,28.4,4.7
Basco,100,PH,1604760106,83,20.45,121.97,80.49,18.25
Vila Velha,40,BR,1604760106,74,-20.33,-40.29,78.8,11.41
Airai,63,TL,1604760107,73,-8.93,125.41,62.58,2.42
Guerrero Negro,96,MX,1604760107,73,27.98,-114.06,66.9,11.77
Avera,90,US,1604760107,94,33.19,-82.53,69.8,13.87
Cocobeach,20,GA,1604760107,79,1.0,9.58,84.2,10.29
Faanui,0,PF,1604760107,75,-16.48,-151.75,78.93,9.46
Chernyshevskiy,62,RU,1604760108,92,63.01,112.47,-7.56,3.13
Bilibino,79,RU,1604760108,88,68.05,166.44,-1.64,1.77
Naliya,0,IN,1604760108,35,23.27,68.83,82.31,6.31
Bethel,1,US,1604759882,71,41.37,-73.41,61.0,3.29
Mitú,100,CO,1604760108,58,1.2,-70.17,89.76,0.65
Codrington,5,AU,1604760108,91,-38.27,141.97,41.5,5.46
Bud,1,US,1604760108,71,39.45,-86.18,55.99,4.99
Vestmannaeyjar,75,IS,1604760108,87,63.44,-20.27,42.8,21.92
Isangel,5,VU,1604760108,84,-19.55,169.27,76.48,6.11
Nanortalik,100,GL,1604760108,84,60.14,-45.24,34.79,10.02
Mīnāb,20,IR,1604760109,61,27.15,57.08,80.6,6.93
Coulommiers,52,FR,1604760032,74,48.81,3.08,61.0,3.0
Nhulunbuy,0,AU,1604760109,78,-12.23,136.77,80.6,1.12
Susa,100,IR,1604760109,24,32.19,48.24,77.97,10.63
Biak,100,ID,1604760109,68,-0.91,122.88,77.77,6.46
Coolum Beach,75,AU,1604760109,68,-26.53,153.1,71.01,1.99
Coquimbo,90,CL,1604760109,87,-29.95,-71.34,55.4,9.17
Antalaha,52,MG,1604760109,79,-14.9,50.28,76.89,10.78
Gravdal,98,NO,1604760109,72,68.12,13.5,40.08,29.77
Hoquiam,75,US,1604760110,88,46.98,-123.89,36.0,3.36
Wajid,100,SO,1604760110,71,3.81,43.25,80.69,4.85
Katsuura,90,JP,1604760110,94,35.13,140.3,71.6,13.87
Batagay,94,RU,1604760110,83,67.63,134.63,-25.6,1.39
Alyangula,18,AU,1604760110,88,-13.85,136.42,75.2,8.48
Aykhal,0,RU,1604760110,84,66.0,111.5,1.4,4.47
Saint-Philippe,90,RE,1604760111,65,-21.36,55.77,77.0,5.82
Puerto Escondido,5,MX,1604760111,83,15.85,-97.07,75.2,10.29
Comendador,100,DO,1604760111,64,18.88,-71.7,80.55,5.97
Tasiilaq,90,GL,1604760111,92,65.61,-37.64,28.4,3.36
Haimen,75,CN,1604760111,61,23.19,116.61,77.0,4.47
Cherskiy,95,RU,1604760111,95,68.75,161.3,7.72,5.39
Vestmanna,100,FO,1604760111,87,62.16,-7.17,42.8,6.93
Petukhovo,100,RU,1604760111,72,55.07,67.9,39.79,12.93
Rio Grande,75,BR,1604760111,60,-32.03,-52.1,73.4,18.34
Tatarsk,61,RU,1604760112,63,55.22,75.98,41.07,14.65
Zabid,7,YE,1604760112,54,14.2,43.32,84.49,10.16
Pitimbu,75,BR,1604760112,66,-7.47,-34.81,86.0,12.75
Hasaki,75,JP,1604759937,100,35.73,140.83,64.4,6.93
Sumenep,15,ID,1604760112,73,-7.02,113.87,83.07,4.38
Sorsk,89,RU,1604760112,86,54.0,90.25,34.72,4.29
Bilma,2,NE,1604760112,16,18.69,12.92,84.69,7.02
Zaysan,0,KZ,1604760112,67,47.47,84.87,38.64,0.65
Luganville,31,VU,1604760112,85,-15.53,167.17,79.23,7.47
Bredasdorp,67,ZA,1604760112,36,-34.53,20.04,77.0,26.4
Nuuk,20,GL,1604759946,67,64.18,-51.72,23.0,6.93
Port Hardy,40,CA,1604760113,80,50.7,-127.42,42.8,14.99
Sinnamary,78,GF,1604760113,76,5.38,-52.95,84.31,10.54
Kruisfontein,35,ZA,1604760113,47,-34.0,24.73,71.58,8.25
Fortuna,90,US,1604760113,100,40.6,-124.16,48.0,9.17
Ponta do Sol,40,PT,1604760113,64,32.67,-17.1,71.6,17.22
Mount Isa,57,AU,1604760113,10,-20.73,139.5,80.6,9.17
Sola,13,VU,1604760113,80,-13.88,167.55,81.52,12.73
Mar del Plata,0,AR,1604760113,56,-38.0,-57.56,73.4,9.17
Road Town,40,VG,1604760114,70,18.42,-64.62,84.2,10.29
Klyuchi,27,RU,1604760114,57,52.27,79.17,44.01,13.51
Acapulco de Juárez,20,MX,1604759897,88,16.86,-99.89,78.8,4.7
Chicama,40,PE,1604760114,82,-7.84,-79.15,64.4,8.05
Leningradskiy,100,RU,1604760114,96,69.38,178.42,21.88,15.41
Longyearbyen,75,SJ,1604760114,69,78.22,15.64,35.6,10.29
Kozan,0,TR,1604760114,26,37.46,35.82,78.8,8.05
Dongfeng,29,CN,1604760114,76,42.64,125.51,29.68,16.17
Saquarema,75,BR,1604760115,83,-22.92,-42.51,75.2,6.93
Sabha,15,LY,1604760115,27,27.04,14.43,74.19,11.72
Saint George,1,US,1604759879,43,37.1,-113.58,62.6,4.7
Laguna,90,US,1604760115,81,38.42,-121.42,48.2,4.7
Baijiantan,0,CN,1604760115,68,45.63,85.18,37.09,1.28
Saint Paul Harbor,90,US,1604760066,86,57.79,-152.41,33.8,5.82
Eureka,64,US,1604760115,94,40.8,-124.16,46.0,11.79
Sørland,76,NO,1604760115,68,67.67,12.69,41.56,28.72
Dezhou,0,CN,1604760116,35,37.45,116.29,51.75,13.56
Dunedin,100,NZ,1604759994,84,-45.87,170.5,46.0,10.71
Mahon,0,ES,1604760116,82,39.89,4.27,66.2,6.93
Elko,89,US,1604760116,80,41.0,-115.5,37.0,7.0
Teresópolis,73,BR,1604760116,76,-22.41,-42.97,73.0,0.89
Constitución,0,CL,1604760116,50,-35.33,-72.42,66.78,11.59
Almaznyy,40,RU,1604760116,71,48.04,40.05,50.0,13.42
Ypsilanti,1,US,1604759956,66,42.24,-83.61,59.0,9.17
Bac Lieu,0,VN,1604759946,86,9.29,105.72,79.27,8.37
Gilgit,0,PK,1604760117,31,35.92,74.31,53.49,3.15
Kimberley,0,ZA,1604760117,21,-28.73,24.76,89.6,14.99
Lábrea,44,BR,1604760117,40,-7.26,-64.8,95.61,4.52
Kavieng,70,PG,1604760117,66,-2.57,150.8,82.65,8.1
Udachny,0,RU,1604760117,84,66.42,112.4,1.4,4.47
Hay River,100,CA,1604760117,83,60.82,-115.8,-7.6,5.82
San Quintín,97,MX,1604760118,62,30.48,-115.95,62.51,18.72
Marquette,100,US,1604759978,71,46.53,-87.63,61.0,8.99
Gondang,4,ID,1604760118,83,-7.01,111.32,78.75,4.52
La Santisima Trinidad,0,BO,1604760118,70,-14.83,-64.9,87.8,9.17
Krynychky,90,UA,1604760118,81,48.38,34.47,48.2,22.37
Kotka,0,FI,1604760118,76,60.47,26.95,48.2,9.17
Nome,75,US,1604760118,86,64.5,-165.41,37.4,14.99
Mountain Home,1,US,1604760118,100,43.13,-115.69,33.8,5.82
Ostrovnoy,42,RU,1604760118,91,68.05,39.51,33.42,15.35
Lagoa,4,PT,1604760119,70,39.05,-27.98,61.59,19.51
Klaksvík,100,FO,1604760119,87,62.23,-6.59,42.8,6.93
Katobu,75,ID,1604760119,82,-4.94,122.53,75.58,3.53
Muyezerskiy,100,RU,1604760119,74,63.93,31.65,46.76,18.25
Lubao,75,PH,1604760119,88,14.92,120.55,78.8,4.7
Salalah,0,OM,1604760119,61,17.02,54.09,80.6,5.82
Caucayá,100,CO,1604760119,83,-0.19,-74.78,83.5,1.12
Gävle,28,SE,1604760119,79,60.67,17.14,48.0,4.0
Diamantino,88,BR,1604760119,35,-14.41,-56.45,95.63,6.8
Kuytun,100,RU,1604760120,98,54.34,101.5,24.58,7.63
Māngrol,0,IN,1604760120,55,21.12,70.12,81.41,3.38
Atar,30,MR,1604760120,15,20.52,-13.05,97.21,8.12
Samfya,0,ZM,1604760120,15,-11.36,29.56,92.93,3.83
Carman,100,CA,1604760120,92,49.5,-98.0,24.8,9.17
Maltahöhe,0,NA,1604760120,11,-24.83,16.98,90.5,21.25
Clyde River,20,CA,1604760121,77,70.47,-68.59,-0.4,14.99
Tautira,40,PF,1604760121,78,-17.73,-149.15,75.2,3.36
San Nicolas,99,PH,1604760121,77,18.17,120.6,79.27,7.0
Blagoyevo,98,RU,1604760121,92,63.37,47.92,34.43,7.9
Bathsheba,40,BB,1604760121,70,13.22,-59.52,87.8,14.99
Trincomalee,71,LK,1604760121,79,8.57,81.23,83.03,12.19
Oranjestad,20,AW,1604760122,79,12.52,-70.03,84.2,12.75
Adiaké,40,CI,1604760122,79,5.29,-3.3,86.0,13.87
Jiuquan,62,CN,1604760122,51,39.74,98.52,39.79,4.92
Alofi,2,NU,1604760122,94,-19.06,-169.92,68.0,6.93
Aswān,42,EG,1604760122,31,24.09,32.91,77.85,7.23
Nadadores,5,MX,1604760122,82,27.05,-101.6,69.01,0.89
Zonguldak,15,TR,1604760122,76,41.25,31.83,47.88,2.89
Thompson,90,CA,1604760122,92,55.74,-97.86,14.0,2.24
Gazli,64,UZ,1604760123,24,40.13,63.45,60.98,7.56
Yerbogachën,100,RU,1604760123,92,61.28,108.01,1.29,4.65
Xiaolingwei,0,CN,1604760123,81,32.03,118.85,64.0,2.24
Saint-Ambroise,88,CA,1604760123,75,48.55,-71.33,41.0,9.17
Ahipara,66,NZ,1604760123,90,-35.17,173.17,62.87,14.65
Saldanha,6,ZA,1604760124,60,-33.01,17.94,68.0,18.34
Benjamin Constant,20,BR,1604760124,70,-4.38,-70.03,86.0,3.24
Venado Tuerto,0,AR,1604760124,37,-33.75,-61.97,84.99,8.01
Port Lincoln,0,AU,1604760124,80,-34.73,135.87,57.04,16.71
Pangnirtung,75,CA,1604760124,85,66.15,-65.71,12.2,13.87
Knysna,0,ZA,1604760125,44,-34.04,23.05,75.2,12.75
Razvilnoye,96,RU,1604760125,59,46.24,41.3,51.71,18.21
City of San Pedro,75,PH,1604760125,83,14.35,121.02,78.8,3.36
Taltal,4,CL,1604759829,65,-25.4,-70.48,64.38,5.35
Jodhpur,0,IN,1604760125,23,26.29,73.03,75.67,1.61
Itarema,51,BR,1604760125,54,-2.92,-39.92,88.16,21.23
Faya,40,SA,1604760125,60,18.39,42.45,68.0,11.41
Chumikan,98,RU,1604760125,89,54.72,135.31,14.07,10.63
Zlobin,0,HR,1604760126,45,45.29,14.65,64.4,8.05
Jipijapa,75,EC,1604760126,78,-1.33,-80.58,75.2,10.29
Abu Dhabi,20,AE,1604759911,62,24.47,54.37,86.0,8.05
Shingū,100,JP,1604760126,91,33.73,135.98,68.41,6.8
Zhigansk,73,RU,1604760126,89,66.77,123.37,-15.43,5.17
Korla,0,CN,1604759947,59,41.76,86.15,39.56,2.59
Anaco,9,VE,1604760126,63,9.44,-64.47,86.25,7.38
Roncesvalles,35,CO,1604760126,76,4.01,-75.6,62.42,4.29
Colchester,0,GB,1604760108,89,51.89,0.9,57.0,1.01
Bodri,0,IN,1604760127,40,23.17,81.43,63.01,0.69
Aksarka,100,RU,1604760127,99,66.56,67.8,30.24,3.11
Komsomolets,100,KZ,1604760127,91,53.75,62.07,42.08,5.91
Xining,0,CN,1604760127,71,36.62,101.77,34.99,1.34
Khorinsk,100,RU,1604760127,89,52.17,109.77,13.82,2.3
Pyapon,0,MM,1604760127,86,16.28,95.68,77.49,5.44
Kudahuvadhoo,32,MV,1604760127,69,2.67,72.89,84.27,6.44
Jalu,0,LY,1604760127,38,29.03,21.55,74.62,13.49
Sorong,83,ID,1604760128,84,-0.88,131.25,80.58,12.64
Mossamedes,20,AO,1604760128,65,-15.2,12.15,78.8,12.75
Meïganga,77,CM,1604760128,42,6.52,14.3,81.81,6.69
Hualmay,1,PE,1604760128,64,-11.1,-77.61,67.59,9.82
Bay Roberts,90,CA,1604760128,93,47.6,-53.26,52.0,32.21
Cabedelo,75,BR,1604760128,66,-6.98,-34.83,86.0,12.75
Los Llanos de Aridane,40,ES,1604760128,60,28.66,-17.92,73.4,4.7
Belaya Gora,100,RU,1604760129,92,68.53,146.42,-4.0,4.85
Cabo San Lucas,5,MX,1604759954,82,22.89,-109.91,66.2,3.36
Kidal,7,ML,1604760129,10,18.44,1.41,91.81,15.08
Vila Franca do Campo,20,PT,1604760129,68,37.72,-25.43,64.4,16.11
Flinders,53,AU,1604760129,76,-34.58,150.86,55.99,8.93
Launceston,0,AU,1604760129,70,-41.45,147.17,44.6,5.82
Mwinilunga,72,ZM,1604760129,32,-11.74,24.43,87.3,3.67
Grindavik,90,IS,1604760129,100,63.84,-22.43,42.8,28.86
Amalāpuram,75,IN,1604760129,69,16.58,82.02,82.4,8.05
Tual,72,ID,1604760130,75,-5.67,132.75,82.58,13.4
Buala,48,SB,1604760130,77,-8.14,159.59,79.72,1.77
Tarko-Sale,100,RU,1604760130,94,64.92,77.78,32.0,6.85
Mbanza-Ngungu,64,CD,1604760130,78,-5.25,14.87,79.95,6.29
Coahuayana Viejo,5,MX,1604760130,77,18.73,-103.68,68.0,11.41
Springbok,0,ZA,1604760130,61,-29.66,17.89,63.5,22.03
Ust'-Tarka,87,RU,1604760131,65,55.57,75.7,40.35,14.18
Karasjok,75,NO,1604760131,74,69.47,25.51,37.4,51.67
Garoowe,65,SO,1604760131,30,8.41,48.48,84.74,1.23
Kysyl-Syr,84,RU,1604760131,90,63.9,122.76,-9.0,4.43
Kamaishi,22,JP,1604760131,79,39.27,141.88,56.14,6.58
Mehamn,94,NO,1604760131,74,71.04,27.85,39.97,29.33
Örebro,100,SE,1604760131,87,59.27,15.21,53.01,12.75
Asău,34,RO,1604760131,87,46.43,26.4,46.99,1.28
Chongwe,20,ZM,1604760131,13,-15.33,28.68,96.8,12.75
Souillac,20,MU,1604760131,78,-20.52,57.52,75.2,11.41
Paide,91,EE,1604760132,99,58.89,25.56,48.0,1.99
Namatanai,90,PG,1604760132,75,-3.67,152.43,79.99,4.68
Preobrazheniye,34,RU,1604760132,63,42.9,133.91,43.0,6.38
Goderich,100,CA,1604760132,66,43.75,-81.72,55.4,13.87
Amursk,100,RU,1604760132,85,50.23,136.9,27.52,8.39
Onverwacht,20,SR,1604760132,55,5.58,-55.18,90.0,10.29
Løding,40,NO,1604760132,75,67.3,14.75,42.01,24.16
Raudeberg,100,NO,1604760132,95,61.99,5.14,48.0,6.06
Careiro da Várzea,75,BR,1604760133,74,-3.2,-59.81,87.8,8.05
Safford,75,US,1604760133,28,32.83,-109.71,71.6,11.41
Banting,20,MY,1604760133,94,2.82,101.5,82.4,2.26
Bahía de Caráquez,75,EC,1604760133,78,-0.6,-80.42,75.2,10.29
Arroyo de la Encomienda,75,ES,1604760133,71,41.61,-4.8,62.01,13.87
Flin Flon,75,CA,1604760133,78,54.77,-101.86,17.6,5.82
Nikki,56,BJ,1604760133,20,9.94,3.21,92.8,5.03
South Shields,36,GB,1604760133,71,55.0,-1.43,50.0,4.7
Porto-Novo,40,BJ,1604760134,70,6.5,2.6,89.6,12.75
Lakes Entrance,0,AU,1604760134,82,-37.88,147.98,45.25,5.46
Havelock,0,US,1604760134,81,34.88,-76.9,73.99,8.32
Burnie,0,AU,1604760134,64,-41.07,145.92,50.0,4.0
Iracoubo,36,GF,1604760134,74,5.48,-53.2,84.97,10.6
Merauke,77,ID,1604760134,75,-8.47,140.33,80.17,8.81
Farafangana,75,MG,1604760134,82,-22.82,47.83,75.47,15.95
Bayan,100,CN,1604760134,77,46.08,127.4,35.01,12.68
Zhangjiakou,0,CN,1604760134,66,40.81,114.88,34.3,10.0
Catherinas Lust,99,GY,1604760135,67,6.4,-57.6,86.14,7.25
Ossora,81,RU,1604760135,90,59.24,163.07,27.97,6.78
Kopāganj,0,IN,1604760135,31,26.02,83.57,73.02,4.72
Lancaster,1,US,1604760068,76,40.25,-76.25,60.01,4.52
Lüderitz,4,NA,1604760135,69,-26.65,15.16,67.66,10.36
Tezu,0,IN,1604760135,45,27.92,96.17,68.31,4.09
La Peca,94,PE,1604760135,63,-5.61,-78.44,79.41,2.35
New Glasgow,58,CA,1604759979,71,45.58,-62.65,55.4,21.92
Wattegama,20,LK,1604760135,100,6.8,81.48,77.0,2.24
Areosa,75,PT,1604760136,82,41.72,-8.86,63.0,19.46
Olinda,75,BR,1604760136,70,-8.01,-34.86,86.0,11.41
Balkhash,98,KZ,1604760136,60,46.84,74.98,43.47,9.06
Hirado,0,JP,1604760136,82,33.36,129.55,64.0,18.05
Høyanger,100,NO,1604760136,96,61.22,6.07,46.99,4.0
Nabire,85,ID,1604760136,89,-3.37,135.48,77.31,3.85
Macedo de Cavaleiros,12,PT,1604760136,90,41.54,-6.96,55.99,1.01
Ţaga,0,RO,1604760137,71,46.95,24.05,53.6,5.82
Yulara,43,AU,1604760137,13,-25.24,130.99,78.8,13.87
Sudislavl',38,RU,1604760137,84,57.88,41.71,37.83,7.23
Lebedinyy,100,RU,1604760137,92,58.52,125.52,-7.8,5.48
Cam Ranh,40,VN,1604760137,74,11.92,109.16,82.4,20.8
Dalaba,5,GN,1604760137,43,10.7,-12.25,82.26,6.98
Bereda,79,ES,1604760137,79,43.27,-7.54,68.0,11.99
Aleksandrov Gay,100,RU,1604760138,76,50.15,48.57,40.95,13.87
Biltine,7,TD,1604760138,15,14.53,20.92,91.33,8.63
Marawi,100,PH,1604760138,91,8.0,124.29,75.0,4.0
Nara,100,JP,1604760128,98,34.69,135.8,64.0,3.15
Bārmer,0,IN,1604760138,21,25.75,71.38,80.08,5.37
Acoyapa,75,NI,1604760138,88,11.97,-85.17,75.2,16.71
Benghazi,15,LY,1604759891,70,32.12,20.07,69.22,23.49
San Cristobal,75,VE,1604760138,94,7.77,-72.22,78.8,3.36
Port-Cartier,100,CA,1604760129,64,50.03,-66.87,36.0,10.29
Moose Factory,75,CA,1604760139,92,51.26,-80.61,30.2,6.93
Cockburn Town,100,TC,1604760139,81,21.46,-71.14,79.95,17.9
Jasło,0,PL,1604760139,100,49.75,21.47,52.0,1.01
Muros,75,ES,1604760139,87,42.78,-9.06,57.99,12.75
Ganzhou,0,CN,1604760139,52,28.82,115.43,61.21,4.85
Talnakh,75,RU,1604760139,78,69.49,88.4,14.0,13.42
Tura,0,IN,1604760139,87,25.52,90.22,65.12,3.74
Bandarbeyla,87,SO,1604760140,82,9.49,50.81,76.68,14.36
Örnsköldsvik,13,SE,1604760140,76,63.29,18.72,50.0,17.22
Kirkwall,40,GB,1604760140,71,58.98,-2.96,50.0,1.12
Noumea,37,NC,1604760140,88,-22.28,166.46,69.8,1.43
Agapovka,90,RU,1604760140,80,53.3,59.13,35.6,6.71
Ocós,75,GT,1604760140,100,14.51,-92.19,78.8,13.8
Ilulissat,75,GL,1604760140,51,69.22,-51.1,14.0,1.12
Tibati,96,CM,1604760140,35,6.47,12.63,85.6,7.36
Igrim,99,RU,1604760140,97,63.19,64.42,32.7,3.04
Petropavlovsk-Kamchatskiy,0,RU,1604760141,79,53.05,158.65,24.8,11.18
Maceió,75,BR,1604760062,74,-9.67,-35.74,84.2,16.11
Teknāf,0,BD,1604760141,83,20.86,92.31,73.8,9.4
Aquin,100,HT,1604760141,77,18.28,-73.4,80.17,6.8
Mokhsogollokh,100,RU,1604760141,91,61.47,128.92,-2.76,4.23
Barra de Tecoanapa,17,MX,1604760141,70,16.52,-98.75,82.38,3.27
Tambopata,0,PE,1604760141,59,-12.73,-69.18,89.6,3.36
Brae,40,GB,1604760141,87,60.4,-1.35,50.0,6.93
Isla Aguada,40,MX,1604760142,78,18.78,-91.47,80.6,12.75
Morón,6,AR,1604760142,50,-34.65,-58.62,80.01,5.01
Kavaratti,2,IN,1604760142,70,10.57,72.64,83.86,5.14
Jaru,52,BR,1604760142,36,-10.44,-62.47,96.85,7.05
Kongoussi,0,BF,1604760142,9,13.33,-1.53,96.46,10.63
Benjamín Aceval,0,PY,1604760142,26,-24.97,-57.57,95.0,8.05
Ilo,90,PE,1604760142,72,-17.64,-71.34,66.2,5.82
Grand Gaube,4,MU,1604760142,72,-20.01,57.66,75.0,7.0
Poum,0,NC,1604760142,73,-20.23,164.02,76.84,17.96
Alexandria,40,EG,1604759866,69,31.22,29.96,73.4,9.17
Hobyo,75,SO,1604760143,75,5.35,48.53,80.19,14.99
Florence,0,IT,1604759971,40,43.77,11.25,71.6,2.24
Shimoda,99,JP,1604760143,94,34.67,138.95,64.0,3.0
Bloemfontein,0,ZA,1604760143,20,-29.12,26.21,86.0,20.8
San Juan,0,AR,1604760143,30,-31.54,-68.54,80.69,5.77
La Orilla,76,MX,1604760143,75,17.98,-102.23,79.05,3.33
Caluquembe,71,AO,1604760143,24,-13.78,14.68,83.55,3.42
Anadyr,40,RU,1604760004,92,64.75,177.48,21.2,2.24
Mogadishu,75,SO,1604759940,62,2.04,45.34,86.0,8.05
Guymon,1,US,1604760144,87,36.68,-101.48,48.2,11.41
Wagga Wagga,0,AU,1604760144,67,-35.12,147.37,57.2,5.82
Lavrentiya,63,RU,1604760144,93,65.58,-171.0,30.33,17.02
Fairbanks,90,US,1604760001,74,64.84,-147.72,33.8,3.36
Kushima,100,JP,1604760144,88,31.46,131.23,64.0,11.01
Jiwani,0,PK,1604760144,72,25.05,61.74,77.63,8.21
Guadalupe Victoria,1,MX,1604760144,38,32.29,-115.11,60.8,16.11
Burns Lake,68,CA,1604760144,85,54.23,-125.75,17.6,4.7
Matagami,90,CA,1604760144,97,49.75,-77.63,32.0,6.93
Umm Kaddadah,16,SD,1604760144,15,13.6,26.69,86.09,12.19
Puerto Peñasco,0,MX,1604760145,74,31.32,-113.53,73.99,28.01
Port Hawkesbury,1,CA,1604760145,67,45.62,-61.35,60.01,19.46
Roswell,90,US,1604760145,88,34.02,-84.36,66.0,5.82
Santa Marta,77,CO,1604760053,71,11.24,-74.2,88.0,1.01
Bridgetown,40,BB,1604760127,70,13.1,-59.62,87.8,14.99
Dachnoye,31,UA,1604760145,75,44.72,33.82,47.8,4.63
Ciudad Gustavo Díaz Ordaz,1,MX,1604760145,88,26.23,-98.58,66.99,6.93
São Miguel do Tapuio,24,BR,1604760145,34,-5.5,-41.32,95.36,8.41
Alugan,96,PH,1604760146,92,12.22,125.48,74.95,4.29
Kataysk,100,RU,1604760146,90,56.29,62.58,37.62,3.4
Ormara,0,PK,1604760146,62,25.21,64.64,77.59,7.02
Saint-Pierre,90,RE,1604760146,65,-21.34,55.48,77.0,5.82
Misratah,8,LY,1604760146,66,32.38,15.09,70.72,15.21
Tsimmerbude,90,RU,1604760146,93,54.67,20.13,48.2,6.71
Nantucket,1,US,1604760081,77,41.28,-70.1,63.0,11.41
Arkhangel’skoye,0,RU,1604760146,85,55.85,35.33,43.12,8.57
Verkhnevilyuysk,100,RU,1604760146,91,63.45,120.32,-2.09,5.64
Grabouw,75,ZA,1604760146,68,-34.15,19.02,66.2,32.21
Honiara,20,SB,1604760147,100,-9.43,159.95,75.2,4.7
La Ronge,87,CA,1604760147,92,55.1,-105.28,6.8,4.23
Heihe,75,CN,1604760147,92,50.24,127.49,24.8,2.24
Geraldton,90,AU,1604759952,77,-28.77,114.6,69.8,10.29
Nador,0,MA,1604760147,53,35.17,-2.93,75.2,8.05
Ahmadpur,0,IN,1604760147,65,18.7,76.93,69.87,6.22
Havøysund,90,NO,1604760147,93,71.0,24.66,35.6,46.08
Olden,75,NO,1604760147,87,61.84,6.81,48.2,1.12
Cappelle-la-Grande,19,FR,1604760147,84,51.0,2.36,57.0,1.99
Cortes,90,ES,1604760148,87,41.94,-1.44,62.6,13.87
Sibolga,100,ID,1604760148,75,1.74,98.78,79.84,2.53
Kaura Namoda,3,NG,1604760148,12,12.59,6.58,90.73,11.52
Lata,77,PT,1604760148,74,40.16,-8.33,64.99,4.0
Lodwar,100,KE,1604760148,36,3.12,35.6,91.22,14.03
Sandwick,40,GB,1604760148,87,60.0,-1.25,50.0,6.93
Ibipeba,94,BR,1604760148,54,-11.64,-42.01,83.44,9.28
Rabaul,80,PG,1604760148,79,-4.2,152.17,80.31,4.65
Iqaluit,90,CA,1604760149,77,63.75,-68.51,5.0,3.36
Marfino,0,RU,1604760149,65,55.7,37.38,70.99,8.95
Cabra,20,ES,1604760149,68,37.47,-4.44,66.2,5.82
Miandrivazo,4,MG,1604760149,38,-19.52,45.47,91.89,11.83
San José de Río Tinto,40,HN,1604760149,83,14.93,-85.7,78.8,3.98
Saint-Leu,90,RE,1604760149,65,-21.15,55.28,77.0,5.82
Requena,62,ES,1604759922,75,39.49,-1.1,61.0,4.0
Nipawin,90,CA,1604760149,100,53.37,-104.0,21.2,14.99
Isiro,86,CD,1604760150,80,2.77,27.62,77.83,1.41
Abbeville,51,FR,1604760150,81,50.1,1.83,57.99,7.49
Mil'kovo,12,RU,1604760150,89,54.72,158.62,25.05,3.24
Winnemucca,90,US,1604760150,86,40.97,-117.74,33.8,4.7
Wajir,73,KE,1604760150,61,1.75,40.06,83.64,4.54
Mīzan Teferī,26,ET,1604760150,90,6.98,35.58,67.17,0.89
Gardendale,75,US,1604760150,72,33.66,-86.81,64.4,9.17
Clarence Town,90,AU,1604760150,77,-32.58,151.78,62.01,11.41
Broken Hill,0,AU,1604760151,41,-31.95,141.43,60.8,8.05
At-Bashi,6,KG,1604760151,50,41.17,75.81,35.29,1.63
Nishihara,40,JP,1604760151,100,26.18,127.76,78.8,3.36
Khurba,100,RU,1604760151,86,50.41,136.88,26.29,7.99
Hakui,26,JP,1604760151,87,36.88,136.78,64.0,11.99
Naifaru,98,MV,1604760151,75,5.44,73.37,83.59,16.46
Smithers,1,CA,1604760151,73,54.78,-127.17,26.6,2.24
Río Gallegos,0,AR,1604760089,38,-51.62,-69.22,60.8,13.87
Kalabo,78,ZM,1604760152,24,-14.97,22.68,92.52,7.96
Sungai Penuh,100,ID,1604760152,93,-2.08,101.38,67.33,1.83
Dongsheng,0,CN,1604760152,77,39.82,109.98,31.14,5.12
Sabang,100,ID,1604760152,78,5.89,95.32,79.63,2.66
Yaring,17,TH,1604760152,80,6.87,101.37,79.88,3.33
Bull Savanna,100,JM,1604760152,91,17.89,-77.59,75.83,14.38
Mayo,1,US,1604760152,93,38.89,-76.51,61.0,1.25
Tamandaré,48,BR,1604760153,72,-8.76,-35.1,83.3,13.96
Luau,67,AO,1604760153,53,-10.71,22.22,86.61,2.3
Rocha,43,UY,1604760153,61,-34.48,-54.33,72.86,8.21
Najrān,0,SA,1604760153,17,17.49,44.13,86.0,8.05
Adamovka,100,RU,1604760153,81,51.52,59.94,42.3,6.33
Usinsk,100,RU,1604760153,99,65.99,57.53,30.51,10.47
Resistencia,0,AR,1604760044,33,-27.46,-58.98,90.0,8.05
Zhalantun,48,CN,1604760154,84,48.0,122.72,26.2,20.33
Kirovskiy,4,RU,1604760154,92,45.09,133.51,31.55,2.33
Inta,100,RU,1604760154,98,66.03,60.17,32.27,8.7
Quelimane,12,MZ,1604760154,51,-17.88,36.89,86.61,12.1
São João da Barra,75,BR,1604760154,61,-21.64,-41.05,78.8,2.24
Baturaja,95,ID,1604760154,92,-4.13,104.17,74.86,2.1
Ørnes,40,NO,1604760154,75,66.87,13.71,42.01,24.16
Bairiki Village,75,KI,1604760154,78,1.33,172.98,80.6,10.29
Gamba,98,GA,1604760155,89,-2.65,10.0,77.54,9.91
Bemidji,1,US,1604759954,100,47.47,-94.88,35.6,2.84
Prince George,90,CA,1604759880,68,53.92,-122.75,27.0,11.41
Qax,75,AZ,1604760155,67,41.42,46.92,57.2,4.7
Izumo,20,JP,1604760155,93,35.37,132.77,60.8,9.17
Sabaudia,0,IT,1604760155,81,41.3,13.03,70.0,5.99
Bukama,26,CD,1604760155,36,-9.2,25.85,93.56,7.29
Wisła,0,PL,1604760155,78,49.66,18.86,52.0,1.99
Atherton,8,GB,1604760156,61,53.52,-2.49,57.0,4.0
Sabla,0,NG,1604760156,11,12.75,4.71,94.05,10.92
Anan,75,JP,1604760156,88,33.92,134.65,66.2,10.29
Rørvik,82,NO,1604760156,60,64.86,11.24,46.31,18.32
Ust'-Koksa,45,RU,1604760156,87,50.27,85.61,33.33,1.59
Killybegs,0,IE,1604760156,76,54.63,-8.45,53.6,8.05
Valparaíso,75,CL,1604760156,87,-33.04,-71.63,57.2,6.93
Pangoa,19,PE,1604760156,40,-12.12,-73.0,90.14,3.33
Dawlatabad,97,AF,1604760156,23,36.41,64.91,65.8,6.13
Nānākuli,1,US,1604760157,88,21.39,-158.15,75.0,3.36
Deqing,0,CN,1604760157,64,30.54,119.96,66.0,4.92
Noshiro,25,JP,1604760157,78,40.2,140.02,57.27,9.69
Sechura,85,PE,1604760157,62,-5.56,-80.82,70.18,4.85
Lucapa,63,AO,1604760157,77,-8.42,20.74,79.21,6.24
Banda Aceh,100,ID,1604760157,78,5.56,95.32,79.0,2.95
Semey,0,KZ,1604760157,58,50.41,80.23,43.86,15.01
